{
  "type": "FeatureCollection",
  "features": [
    {
      "type": "Feature",
      "geometry": {
        "type": "Point",
        "coordinates": [
          -66.9278631,
          10.5145882
        ]
      },
      "properties": {
        "id": "caracas-metrobus:13-de-julio",
        "name": "13 de Julio",
        "system": "caracas-metrobus",
        "lines": [
          "541",
          "542"
        ],
        "status": "operational",
        "altitude_m": null,
        "wikidata": null
      }
    },
    {
      "type": "Feature",
      "geometry": {
        "type": "Point",
        "coordinates": [
          -66.921072,
          10.4876905
        ]
      },
      "properties": {
        "id": "caracas-metrobus:21-de-julio",
        "name": "21 de Julio",
        "system": "caracas-metrobus",
        "lines": [
          "606"
        ],
        "status": "operational",
        "altitude_m": null,
        "wikidata": null
      }
    },
    {
      "type": "Feature",
      "geometry": {
        "type": "Point",
        "coordinates": [
          -66.9210884,
          10.487885
        ]
      },
      "properties": {
        "id": "caracas-metrobus:21-de-julio-2",
        "name": "21 de Julio",
        "system": "caracas-metrobus",
        "lines": [
          "606"
        ],
        "status": "operational",
        "altitude_m": null,
        "wikidata": null
      }
    },
    {
      "type": "Feature",
      "geometry": {
        "type": "Point",
        "coordinates": [
          -66.8335949,
          10.499988
        ]
      },
      "properties": {
        "id": "caracas-metrobus:5-transversal",
        "name": "5.° Transversal",
        "system": "caracas-metrobus",
        "lines": [
          "111"
        ],
        "status": "operational",
        "altitude_m": null,
        "wikidata": null
      }
    },
    {
      "type": "Feature",
      "geometry": {
        "type": "Point",
        "coordinates": [
          -66.9481314,
          10.5050779
        ]
      },
      "properties": {
        "id": "caracas-metrobus:7a-avenida",
        "name": "7a Avenida",
        "system": "caracas-metrobus",
        "lines": [
          "605"
        ],
        "status": "operational",
        "altitude_m": null,
        "wikidata": null
      }
    },
    {
      "type": "Feature",
      "geometry": {
        "type": "Point",
        "coordinates": [
          -66.8802802,
          10.4903681
        ]
      },
      "properties": {
        "id": "caracas-metrobus:acacias",
        "name": "Acacias",
        "system": "caracas-metrobus",
        "lines": [
          "315"
        ],
        "status": "operational",
        "altitude_m": null,
        "wikidata": null
      }
    },
    {
      "type": "Feature",
      "geometry": {
        "type": "Point",
        "coordinates": [
          -66.8724004,
          10.4871399
        ]
      },
      "properties": {
        "id": "caracas-metrobus:alejandria",
        "name": "Alejandría",
        "system": "caracas-metrobus",
        "lines": [
          "315",
          "P-681"
        ],
        "status": "operational",
        "altitude_m": null,
        "wikidata": null
      }
    },
    {
      "type": "Feature",
      "geometry": {
        "type": "Point",
        "coordinates": [
          -66.9540122,
          10.50213
        ]
      },
      "properties": {
        "id": "caracas-metrobus:alma-llanera",
        "name": "Alma Llanera",
        "system": "caracas-metrobus",
        "lines": [
          "501"
        ],
        "status": "operational",
        "altitude_m": null,
        "wikidata": null
      }
    },
    {
      "type": "Feature",
      "geometry": {
        "type": "Point",
        "coordinates": [
          -66.8889228,
          10.4804926
        ]
      },
      "properties": {
        "id": "caracas-metrobus:alma-mater",
        "name": "Alma Mater",
        "system": "caracas-metrobus",
        "lines": [
          "921"
        ],
        "status": "operational",
        "altitude_m": null,
        "wikidata": null
      }
    },
    {
      "type": "Feature",
      "geometry": {
        "type": "Point",
        "coordinates": [
          -66.8723687,
          10.5075763
        ]
      },
      "properties": {
        "id": "caracas-metrobus:alta-florida",
        "name": "Alta Florida",
        "system": "caracas-metrobus",
        "lines": [
          "302"
        ],
        "status": "operational",
        "altitude_m": null,
        "wikidata": null
      }
    },
    {
      "type": "Feature",
      "geometry": {
        "type": "Point",
        "coordinates": [
          -66.9417299,
          10.5226068
        ]
      },
      "properties": {
        "id": "caracas-metrobus:alta-vista",
        "name": "Alta Vista",
        "system": "caracas-metrobus",
        "lines": [
          "533"
        ],
        "status": "operational",
        "altitude_m": null,
        "wikidata": null
      }
    },
    {
      "type": "Feature",
      "geometry": {
        "type": "Point",
        "coordinates": [
          -66.8488516,
          10.4954426
        ]
      },
      "properties": {
        "id": "caracas-metrobus:altamira",
        "name": "Altamira",
        "system": "caracas-metrobus",
        "lines": [
          "201",
          "202",
          "203"
        ],
        "status": "operational",
        "altitude_m": null,
        "wikidata": null
      }
    },
    {
      "type": "Feature",
      "geometry": {
        "type": "Point",
        "coordinates": [
          -66.9464651,
          10.4695906
        ]
      },
      "properties": {
        "id": "caracas-metrobus:amanda-schnell",
        "name": "Amanda Schnell",
        "system": "caracas-metrobus",
        "lines": [
          "607"
        ],
        "status": "operational",
        "altitude_m": null,
        "wikidata": null
      }
    },
    {
      "type": "Feature",
      "geometry": {
        "type": "Point",
        "coordinates": [
          -66.847899,
          10.4830344
        ]
      },
      "properties": {
        "id": "caracas-metrobus:amazonas",
        "name": "Amazonas",
        "system": "caracas-metrobus",
        "lines": [
          "201"
        ],
        "status": "operational",
        "altitude_m": null,
        "wikidata": null
      }
    },
    {
      "type": "Feature",
      "geometry": {
        "type": "Point",
        "coordinates": [
          -66.970729,
          10.4811987
        ]
      },
      "properties": {
        "id": "caracas-metrobus:ambulatorio",
        "name": "Ambulatorio",
        "system": "caracas-metrobus",
        "lines": [
          "P-771"
        ],
        "status": "operational",
        "altitude_m": null,
        "wikidata": null
      }
    },
    {
      "type": "Feature",
      "geometry": {
        "type": "Point",
        "coordinates": [
          -66.8735016,
          10.4467453
        ]
      },
      "properties": {
        "id": "caracas-metrobus:america",
        "name": "América",
        "system": "caracas-metrobus",
        "lines": [
          "222"
        ],
        "status": "operational",
        "altitude_m": null,
        "wikidata": null
      }
    },
    {
      "type": "Feature",
      "geometry": {
        "type": "Point",
        "coordinates": [
          -66.8733019,
          10.4468685
        ]
      },
      "properties": {
        "id": "caracas-metrobus:america-2",
        "name": "América",
        "system": "caracas-metrobus",
        "lines": [
          "222"
        ],
        "status": "operational",
        "altitude_m": null,
        "wikidata": null
      }
    },
    {
      "type": "Feature",
      "geometry": {
        "type": "Point",
        "coordinates": [
          -66.8946214,
          10.5045996
        ]
      },
      "properties": {
        "id": "caracas-metrobus:andres-bello",
        "name": "Andrés Bello",
        "system": "caracas-metrobus",
        "lines": [
          "316"
        ],
        "status": "operational",
        "altitude_m": null,
        "wikidata": null
      }
    },
    {
      "type": "Feature",
      "geometry": {
        "type": "Point",
        "coordinates": [
          -66.8897291,
          10.4809955
        ]
      },
      "properties": {
        "id": "caracas-metrobus:aranda",
        "name": "Aranda",
        "system": "caracas-metrobus",
        "lines": [
          "921"
        ],
        "status": "operational",
        "altitude_m": null,
        "wikidata": null
      }
    },
    {
      "type": "Feature",
      "geometry": {
        "type": "Point",
        "coordinates": [
          -66.8430746,
          10.4643803
        ]
      },
      "properties": {
        "id": "caracas-metrobus:aries",
        "name": "Aries",
        "system": "caracas-metrobus",
        "lines": [
          "121"
        ],
        "status": "operational",
        "altitude_m": null,
        "wikidata": null
      }
    },
    {
      "type": "Feature",
      "geometry": {
        "type": "Point",
        "coordinates": [
          -66.8865008,
          10.5045274
        ]
      },
      "properties": {
        "id": "caracas-metrobus:aristides-rojas",
        "name": "Arístides Rojas",
        "system": "caracas-metrobus",
        "lines": [
          "316"
        ],
        "status": "operational",
        "altitude_m": null,
        "wikidata": null
      }
    },
    {
      "type": "Feature",
      "geometry": {
        "type": "Point",
        "coordinates": [
          -66.9457765,
          10.499158
        ]
      },
      "properties": {
        "id": "caracas-metrobus:atlantico",
        "name": "Atlántico",
        "system": "caracas-metrobus",
        "lines": [
          "605"
        ],
        "status": "operational",
        "altitude_m": null,
        "wikidata": null
      }
    },
    {
      "type": "Feature",
      "geometry": {
        "type": "Point",
        "coordinates": [
          -66.7970177,
          10.4805569
        ]
      },
      "properties": {
        "id": "caracas-metrobus:avenida-central",
        "name": "Avenida Central",
        "system": "caracas-metrobus",
        "lines": [
          "021"
        ],
        "status": "operational",
        "altitude_m": null,
        "wikidata": null
      }
    },
    {
      "type": "Feature",
      "geometry": {
        "type": "Point",
        "coordinates": [
          -66.7906154,
          10.4799847
        ]
      },
      "properties": {
        "id": "caracas-metrobus:avenida-principal",
        "name": "Avenida Principal",
        "system": "caracas-metrobus",
        "lines": [
          "021"
        ],
        "status": "operational",
        "altitude_m": null,
        "wikidata": null
      }
    },
    {
      "type": "Feature",
      "geometry": {
        "type": "Point",
        "coordinates": [
          -66.7911413,
          10.4794906
        ]
      },
      "properties": {
        "id": "caracas-metrobus:avenida-principal-2",
        "name": "Avenida Principal",
        "system": "caracas-metrobus",
        "lines": [
          "021"
        ],
        "status": "operational",
        "altitude_m": null,
        "wikidata": null
      }
    },
    {
      "type": "Feature",
      "geometry": {
        "type": "Point",
        "coordinates": [
          -66.821674,
          10.495798
        ]
      },
      "properties": {
        "id": "caracas-metrobus:avila",
        "name": "Ávila",
        "system": "caracas-metrobus",
        "lines": [
          "122"
        ],
        "status": "operational",
        "altitude_m": null,
        "wikidata": null
      }
    },
    {
      "type": "Feature",
      "geometry": {
        "type": "Point",
        "coordinates": [
          -66.8983506,
          10.5151329
        ]
      },
      "properties": {
        "id": "caracas-metrobus:avila-2",
        "name": "Ávila",
        "system": "caracas-metrobus",
        "lines": [
          "421"
        ],
        "status": "operational",
        "altitude_m": null,
        "wikidata": null
      }
    },
    {
      "type": "Feature",
      "geometry": {
        "type": "Point",
        "coordinates": [
          -66.8734953,
          10.5016204
        ]
      },
      "properties": {
        "id": "caracas-metrobus:avila-i",
        "name": "Ávila I",
        "system": "caracas-metrobus",
        "lines": [
          "302"
        ],
        "status": "operational",
        "altitude_m": null,
        "wikidata": null
      }
    },
    {
      "type": "Feature",
      "geometry": {
        "type": "Point",
        "coordinates": [
          -66.8731061,
          10.5016012
        ]
      },
      "properties": {
        "id": "caracas-metrobus:avila-ii",
        "name": "Ávila II",
        "system": "caracas-metrobus",
        "lines": [
          "302"
        ],
        "status": "operational",
        "altitude_m": null,
        "wikidata": null
      }
    },
    {
      "type": "Feature",
      "geometry": {
        "type": "Point",
        "coordinates": [
          -66.9299527,
          10.5177647
        ]
      },
      "properties": {
        "id": "caracas-metrobus:bachiche",
        "name": "Bachiche",
        "system": "caracas-metrobus",
        "lines": [
          "541",
          "542"
        ],
        "status": "operational",
        "altitude_m": null,
        "wikidata": null
      }
    },
    {
      "type": "Feature",
      "geometry": {
        "type": "Point",
        "coordinates": [
          -66.9299627,
          10.5214472
        ]
      },
      "properties": {
        "id": "caracas-metrobus:barrio-obrero",
        "name": "Barrio Obrero",
        "system": "caracas-metrobus",
        "lines": [
          "542"
        ],
        "status": "operational",
        "altitude_m": null,
        "wikidata": null
      }
    },
    {
      "type": "Feature",
      "geometry": {
        "type": "Point",
        "coordinates": [
          -66.8737185,
          10.4342048
        ]
      },
      "properties": {
        "id": "caracas-metrobus:baruta",
        "name": "Baruta",
        "system": "caracas-metrobus",
        "lines": [
          "222"
        ],
        "status": "operational",
        "altitude_m": null,
        "wikidata": null
      }
    },
    {
      "type": "Feature",
      "geometry": {
        "type": "Point",
        "coordinates": [
          -66.8757552,
          10.4875606
        ]
      },
      "properties": {
        "id": "caracas-metrobus:beethoven",
        "name": "Beethoven",
        "system": "caracas-metrobus",
        "lines": [
          "315"
        ],
        "status": "operational",
        "altitude_m": null,
        "wikidata": null
      }
    },
    {
      "type": "Feature",
      "geometry": {
        "type": "Point",
        "coordinates": [
          -66.9498022,
          10.4854167
        ]
      },
      "properties": {
        "id": "caracas-metrobus:bella-vista",
        "name": "Bella Vista",
        "system": "caracas-metrobus",
        "lines": [
          "606",
          "607"
        ],
        "status": "operational",
        "altitude_m": null,
        "wikidata": null
      }
    },
    {
      "type": "Feature",
      "geometry": {
        "type": "Point",
        "coordinates": [
          -66.9002901,
          10.5011893
        ]
      },
      "properties": {
        "id": "caracas-metrobus:bellas-artes",
        "name": "Bellas Artes",
        "system": "caracas-metrobus",
        "lines": [
          "421"
        ],
        "status": "operational",
        "altitude_m": null,
        "wikidata": null
      }
    },
    {
      "type": "Feature",
      "geometry": {
        "type": "Point",
        "coordinates": [
          -66.9007247,
          10.5025744
        ]
      },
      "properties": {
        "id": "caracas-metrobus:bellas-artes-norte",
        "name": "Bellas Artes Norte",
        "system": "caracas-metrobus",
        "lines": [
          "421"
        ],
        "status": "operational",
        "altitude_m": null,
        "wikidata": null
      }
    },
    {
      "type": "Feature",
      "geometry": {
        "type": "Point",
        "coordinates": [
          -66.870296,
          10.4873635
        ]
      },
      "properties": {
        "id": "caracas-metrobus:bello-monte",
        "name": "Bello Monte",
        "system": "caracas-metrobus",
        "lines": [
          "315",
          "P-681"
        ],
        "status": "operational",
        "altitude_m": null,
        "wikidata": null
      }
    },
    {
      "type": "Feature",
      "geometry": {
        "type": "Point",
        "coordinates": [
          -66.992128,
          10.4368714
        ]
      },
      "properties": {
        "id": "caracas-metrobus:biblioteca",
        "name": "Biblioteca",
        "system": "caracas-metrobus",
        "lines": [
          "712"
        ],
        "status": "operational",
        "altitude_m": null,
        "wikidata": null
      }
    },
    {
      "type": "Feature",
      "geometry": {
        "type": "Point",
        "coordinates": [
          -66.8891396,
          10.4756726
        ]
      },
      "properties": {
        "id": "caracas-metrobus:blanco-fombona",
        "name": "Blanco Fombona",
        "system": "caracas-metrobus",
        "lines": [
          "921"
        ],
        "status": "operational",
        "altitude_m": null,
        "wikidata": null
      }
    },
    {
      "type": "Feature",
      "geometry": {
        "type": "Point",
        "coordinates": [
          -66.8916902,
          10.5119751
        ]
      },
      "properties": {
        "id": "caracas-metrobus:bloque-1",
        "name": "Bloque 1",
        "system": "caracas-metrobus",
        "lines": [
          "316"
        ],
        "status": "operational",
        "altitude_m": null,
        "wikidata": null
      }
    },
    {
      "type": "Feature",
      "geometry": {
        "type": "Point",
        "coordinates": [
          -66.9743866,
          10.5983871
        ]
      },
      "properties": {
        "id": "caracas-metrobus:bloque-1-2",
        "name": "Bloque 1",
        "system": "caracas-metrobus",
        "lines": [
          "603"
        ],
        "status": "operational",
        "altitude_m": null,
        "wikidata": null
      }
    },
    {
      "type": "Feature",
      "geometry": {
        "type": "Point",
        "coordinates": [
          -66.947305,
          10.5030949
        ]
      },
      "properties": {
        "id": "caracas-metrobus:bloque-1-3",
        "name": "Bloque 1",
        "system": "caracas-metrobus",
        "lines": [
          "605"
        ],
        "status": "operational",
        "altitude_m": null,
        "wikidata": null
      }
    },
    {
      "type": "Feature",
      "geometry": {
        "type": "Point",
        "coordinates": [
          -66.8914294,
          10.5132788
        ]
      },
      "properties": {
        "id": "caracas-metrobus:bloque-11",
        "name": "Bloque 11",
        "system": "caracas-metrobus",
        "lines": [
          "316"
        ],
        "status": "operational",
        "altitude_m": null,
        "wikidata": null
      }
    },
    {
      "type": "Feature",
      "geometry": {
        "type": "Point",
        "coordinates": [
          -66.9544489,
          10.4357472
        ]
      },
      "properties": {
        "id": "caracas-metrobus:bloque-12",
        "name": "Bloque 12",
        "system": "caracas-metrobus",
        "lines": [
          "731"
        ],
        "status": "operational",
        "altitude_m": null,
        "wikidata": null
      }
    },
    {
      "type": "Feature",
      "geometry": {
        "type": "Point",
        "coordinates": [
          -66.956511,
          10.4347664
        ]
      },
      "properties": {
        "id": "caracas-metrobus:bloque-15",
        "name": "Bloque 15",
        "system": "caracas-metrobus",
        "lines": [
          "731"
        ],
        "status": "operational",
        "altitude_m": null,
        "wikidata": null
      }
    },
    {
      "type": "Feature",
      "geometry": {
        "type": "Point",
        "coordinates": [
          -66.9592966,
          10.4331978
        ]
      },
      "properties": {
        "id": "caracas-metrobus:bloque-18",
        "name": "Bloque 18",
        "system": "caracas-metrobus",
        "lines": [
          "731"
        ],
        "status": "operational",
        "altitude_m": null,
        "wikidata": null
      }
    },
    {
      "type": "Feature",
      "geometry": {
        "type": "Point",
        "coordinates": [
          -66.9621356,
          10.4303348
        ]
      },
      "properties": {
        "id": "caracas-metrobus:bloque-26",
        "name": "Bloque 26",
        "system": "caracas-metrobus",
        "lines": [
          "731"
        ],
        "status": "operational",
        "altitude_m": null,
        "wikidata": null
      }
    },
    {
      "type": "Feature",
      "geometry": {
        "type": "Point",
        "coordinates": [
          -66.9641418,
          10.4328495
        ]
      },
      "properties": {
        "id": "caracas-metrobus:bloque-3",
        "name": "Bloque 3",
        "system": "caracas-metrobus",
        "lines": [
          "731"
        ],
        "status": "operational",
        "altitude_m": null,
        "wikidata": null
      }
    },
    {
      "type": "Feature",
      "geometry": {
        "type": "Point",
        "coordinates": [
          -66.9645974,
          10.432909
        ]
      },
      "properties": {
        "id": "caracas-metrobus:bloque-3-2",
        "name": "Bloque 3",
        "system": "caracas-metrobus",
        "lines": [
          "731"
        ],
        "status": "operational",
        "altitude_m": null,
        "wikidata": null
      }
    },
    {
      "type": "Feature",
      "geometry": {
        "type": "Point",
        "coordinates": [
          -66.9644447,
          10.4316717
        ]
      },
      "properties": {
        "id": "caracas-metrobus:bloque-34",
        "name": "Bloque 34",
        "system": "caracas-metrobus",
        "lines": [
          "731"
        ],
        "status": "operational",
        "altitude_m": null,
        "wikidata": null
      }
    },
    {
      "type": "Feature",
      "geometry": {
        "type": "Point",
        "coordinates": [
          -66.9392527,
          10.5058501
        ]
      },
      "properties": {
        "id": "caracas-metrobus:bloque-37",
        "name": "Bloque 37",
        "system": "caracas-metrobus",
        "lines": [
          "605"
        ],
        "status": "operational",
        "altitude_m": null,
        "wikidata": null
      }
    },
    {
      "type": "Feature",
      "geometry": {
        "type": "Point",
        "coordinates": [
          -66.9409268,
          10.5070451
        ]
      },
      "properties": {
        "id": "caracas-metrobus:bloque-39",
        "name": "Bloque 39",
        "system": "caracas-metrobus",
        "lines": [
          "605"
        ],
        "status": "operational",
        "altitude_m": null,
        "wikidata": null
      }
    },
    {
      "type": "Feature",
      "geometry": {
        "type": "Point",
        "coordinates": [
          -66.9709591,
          10.5993855
        ]
      },
      "properties": {
        "id": "caracas-metrobus:bloque-4",
        "name": "Bloque 4",
        "system": "caracas-metrobus",
        "lines": [
          "603"
        ],
        "status": "operational",
        "altitude_m": null,
        "wikidata": null
      }
    },
    {
      "type": "Feature",
      "geometry": {
        "type": "Point",
        "coordinates": [
          -66.9424392,
          10.5083961
        ]
      },
      "properties": {
        "id": "caracas-metrobus:bloque-41",
        "name": "Bloque 41",
        "system": "caracas-metrobus",
        "lines": [
          "605"
        ],
        "status": "operational",
        "altitude_m": null,
        "wikidata": null
      }
    },
    {
      "type": "Feature",
      "geometry": {
        "type": "Point",
        "coordinates": [
          -66.9461526,
          10.5058434
        ]
      },
      "properties": {
        "id": "caracas-metrobus:bloque-43",
        "name": "Bloque 43",
        "system": "caracas-metrobus",
        "lines": [
          "605"
        ],
        "status": "operational",
        "altitude_m": null,
        "wikidata": null
      }
    },
    {
      "type": "Feature",
      "geometry": {
        "type": "Point",
        "coordinates": [
          -66.9354614,
          10.505938
        ]
      },
      "properties": {
        "id": "caracas-metrobus:bloque-52",
        "name": "Bloque 52",
        "system": "caracas-metrobus",
        "lines": [
          "605"
        ],
        "status": "operational",
        "altitude_m": null,
        "wikidata": null
      }
    },
    {
      "type": "Feature",
      "geometry": {
        "type": "Point",
        "coordinates": [
          -66.9367089,
          10.5067944
        ]
      },
      "properties": {
        "id": "caracas-metrobus:bloque-56",
        "name": "Bloque 56",
        "system": "caracas-metrobus",
        "lines": [
          "605"
        ],
        "status": "operational",
        "altitude_m": null,
        "wikidata": null
      }
    },
    {
      "type": "Feature",
      "geometry": {
        "type": "Point",
        "coordinates": [
          -66.9596867,
          10.4345785
        ]
      },
      "properties": {
        "id": "caracas-metrobus:bloque-6",
        "name": "Bloque 6",
        "system": "caracas-metrobus",
        "lines": [
          "731"
        ],
        "status": "operational",
        "altitude_m": null,
        "wikidata": null
      }
    },
    {
      "type": "Feature",
      "geometry": {
        "type": "Point",
        "coordinates": [
          -66.930145,
          10.5065107
        ]
      },
      "properties": {
        "id": "caracas-metrobus:bloque-7",
        "name": "Bloque 7",
        "system": "caracas-metrobus",
        "lines": [
          "605"
        ],
        "status": "operational",
        "altitude_m": null,
        "wikidata": null
      }
    },
    {
      "type": "Feature",
      "geometry": {
        "type": "Point",
        "coordinates": [
          -66.9567681,
          10.436446
        ]
      },
      "properties": {
        "id": "caracas-metrobus:bloque-8",
        "name": "Bloque 8",
        "system": "caracas-metrobus",
        "lines": [
          "731"
        ],
        "status": "operational",
        "altitude_m": null,
        "wikidata": null
      }
    },
    {
      "type": "Feature",
      "geometry": {
        "type": "Point",
        "coordinates": [
          -66.9276549,
          10.5111198
        ]
      },
      "properties": {
        "id": "caracas-metrobus:bloque-9",
        "name": "Bloque 9",
        "system": "caracas-metrobus",
        "lines": [
          "605"
        ],
        "status": "operational",
        "altitude_m": null,
        "wikidata": null
      }
    },
    {
      "type": "Feature",
      "geometry": {
        "type": "Point",
        "coordinates": [
          -66.8224013,
          10.4905895
        ]
      },
      "properties": {
        "id": "caracas-metrobus:boleita-sur",
        "name": "Boleíta Sur",
        "system": "caracas-metrobus",
        "lines": [
          "122"
        ],
        "status": "operational",
        "altitude_m": null,
        "wikidata": null
      }
    },
    {
      "type": "Feature",
      "geometry": {
        "type": "Point",
        "coordinates": [
          -66.8235665,
          10.4908514
        ]
      },
      "properties": {
        "id": "caracas-metrobus:boleita-sur-2",
        "name": "Boleíta Sur",
        "system": "caracas-metrobus",
        "lines": [
          "122"
        ],
        "status": "operational",
        "altitude_m": null,
        "wikidata": null
      }
    },
    {
      "type": "Feature",
      "geometry": {
        "type": "Point",
        "coordinates": [
          -66.8907778,
          10.4739811
        ]
      },
      "properties": {
        "id": "caracas-metrobus:bolet-peraza",
        "name": "Bolet Peraza",
        "system": "caracas-metrobus",
        "lines": [
          "921"
        ],
        "status": "operational",
        "altitude_m": null,
        "wikidata": null
      }
    },
    {
      "type": "Feature",
      "geometry": {
        "type": "Point",
        "coordinates": [
          -66.8384483,
          10.4720295
        ]
      },
      "properties": {
        "id": "caracas-metrobus:boulevard",
        "name": "Boulevard",
        "system": "caracas-metrobus",
        "lines": [
          "121"
        ],
        "status": "operational",
        "altitude_m": null,
        "wikidata": null
      }
    },
    {
      "type": "Feature",
      "geometry": {
        "type": "Point",
        "coordinates": [
          -66.8320576,
          10.5075951
        ]
      },
      "properties": {
        "id": "caracas-metrobus:boyaca",
        "name": "Boyacá",
        "system": "caracas-metrobus",
        "lines": [
          "111"
        ],
        "status": "operational",
        "altitude_m": null,
        "wikidata": null
      }
    },
    {
      "type": "Feature",
      "geometry": {
        "type": "Point",
        "coordinates": [
          -66.8842255,
          10.508802
        ]
      },
      "properties": {
        "id": "caracas-metrobus:buen-ciudadano",
        "name": "Buen Ciudadano",
        "system": "caracas-metrobus",
        "lines": [
          "314"
        ],
        "status": "operational",
        "altitude_m": null,
        "wikidata": null
      }
    },
    {
      "type": "Feature",
      "geometry": {
        "type": "Point",
        "coordinates": [
          -66.9412065,
          10.4314209
        ]
      },
      "properties": {
        "id": "caracas-metrobus:cacique",
        "name": "Cacique",
        "system": "caracas-metrobus",
        "lines": [
          "801"
        ],
        "status": "operational",
        "altitude_m": null,
        "wikidata": null
      }
    },
    {
      "type": "Feature",
      "geometry": {
        "type": "Point",
        "coordinates": [
          -66.8070208,
          10.4903583
        ]
      },
      "properties": {
        "id": "caracas-metrobus:calle-10",
        "name": "Calle 10",
        "system": "caracas-metrobus",
        "lines": [
          "003"
        ],
        "status": "operational",
        "altitude_m": null,
        "wikidata": null
      }
    },
    {
      "type": "Feature",
      "geometry": {
        "type": "Point",
        "coordinates": [
          -66.7930999,
          10.48044
        ]
      },
      "properties": {
        "id": "caracas-metrobus:calle-10-2",
        "name": "Calle 10",
        "system": "caracas-metrobus",
        "lines": [
          "021"
        ],
        "status": "operational",
        "altitude_m": null,
        "wikidata": null
      }
    },
    {
      "type": "Feature",
      "geometry": {
        "type": "Point",
        "coordinates": [
          -66.7929628,
          10.4807542
        ]
      },
      "properties": {
        "id": "caracas-metrobus:calle-10-3",
        "name": "Calle 10",
        "system": "caracas-metrobus",
        "lines": [
          "021"
        ],
        "status": "operational",
        "altitude_m": null,
        "wikidata": null
      }
    },
    {
      "type": "Feature",
      "geometry": {
        "type": "Point",
        "coordinates": [
          -66.9600158,
          10.5027187
        ]
      },
      "properties": {
        "id": "caracas-metrobus:calle-10-4",
        "name": "Calle 10",
        "system": "caracas-metrobus",
        "lines": [
          "501"
        ],
        "status": "operational",
        "altitude_m": null,
        "wikidata": null
      }
    },
    {
      "type": "Feature",
      "geometry": {
        "type": "Point",
        "coordinates": [
          -66.8100514,
          10.4887083
        ]
      },
      "properties": {
        "id": "caracas-metrobus:calle-12",
        "name": "Calle 12",
        "system": "caracas-metrobus",
        "lines": [
          "003"
        ],
        "status": "operational",
        "altitude_m": null,
        "wikidata": null
      }
    },
    {
      "type": "Feature",
      "geometry": {
        "type": "Point",
        "coordinates": [
          -66.7923989,
          10.4793131
        ]
      },
      "properties": {
        "id": "caracas-metrobus:calle-12-2",
        "name": "Calle 12",
        "system": "caracas-metrobus",
        "lines": [
          "021"
        ],
        "status": "operational",
        "altitude_m": null,
        "wikidata": null
      }
    },
    {
      "type": "Feature",
      "geometry": {
        "type": "Point",
        "coordinates": [
          -66.7926181,
          10.4794535
        ]
      },
      "properties": {
        "id": "caracas-metrobus:calle-12-3",
        "name": "Calle 12",
        "system": "caracas-metrobus",
        "lines": [
          "021"
        ],
        "status": "operational",
        "altitude_m": null,
        "wikidata": null
      }
    },
    {
      "type": "Feature",
      "geometry": {
        "type": "Point",
        "coordinates": [
          -66.8087953,
          10.4840463
        ]
      },
      "properties": {
        "id": "caracas-metrobus:calle-13",
        "name": "Calle 13",
        "system": "caracas-metrobus",
        "lines": [
          "003"
        ],
        "status": "operational",
        "altitude_m": null,
        "wikidata": null
      }
    },
    {
      "type": "Feature",
      "geometry": {
        "type": "Point",
        "coordinates": [
          -66.8096691,
          10.4836817
        ]
      },
      "properties": {
        "id": "caracas-metrobus:calle-14",
        "name": "Calle 14",
        "system": "caracas-metrobus",
        "lines": [
          "003"
        ],
        "status": "operational",
        "altitude_m": null,
        "wikidata": null
      }
    },
    {
      "type": "Feature",
      "geometry": {
        "type": "Point",
        "coordinates": [
          -66.8097527,
          10.4872685
        ]
      },
      "properties": {
        "id": "caracas-metrobus:calle-14-norte",
        "name": "Calle 14 Norte",
        "system": "caracas-metrobus",
        "lines": [
          "003"
        ],
        "status": "operational",
        "altitude_m": null,
        "wikidata": null
      }
    },
    {
      "type": "Feature",
      "geometry": {
        "type": "Point",
        "coordinates": [
          -66.8105392,
          10.4854894
        ]
      },
      "properties": {
        "id": "caracas-metrobus:calle-15",
        "name": "Calle 15",
        "system": "caracas-metrobus",
        "lines": [
          "003"
        ],
        "status": "operational",
        "altitude_m": null,
        "wikidata": null
      }
    },
    {
      "type": "Feature",
      "geometry": {
        "type": "Point",
        "coordinates": [
          -66.7895761,
          10.4824148
        ]
      },
      "properties": {
        "id": "caracas-metrobus:calle-15-2",
        "name": "Calle 15",
        "system": "caracas-metrobus",
        "lines": [
          "021"
        ],
        "status": "operational",
        "altitude_m": null,
        "wikidata": null
      }
    },
    {
      "type": "Feature",
      "geometry": {
        "type": "Point",
        "coordinates": [
          -66.7896617,
          10.4809902
        ]
      },
      "properties": {
        "id": "caracas-metrobus:calle-16",
        "name": "Calle 16",
        "system": "caracas-metrobus",
        "lines": [
          "021"
        ],
        "status": "operational",
        "altitude_m": null,
        "wikidata": null
      }
    },
    {
      "type": "Feature",
      "geometry": {
        "type": "Point",
        "coordinates": [
          -66.9695751,
          10.4775485
        ]
      },
      "properties": {
        "id": "caracas-metrobus:calle-2",
        "name": "Calle 2",
        "system": "caracas-metrobus",
        "lines": [
          "P-771"
        ],
        "status": "operational",
        "altitude_m": null,
        "wikidata": null
      }
    },
    {
      "type": "Feature",
      "geometry": {
        "type": "Point",
        "coordinates": [
          -66.9698445,
          10.4778438
        ]
      },
      "properties": {
        "id": "caracas-metrobus:calle-2-2",
        "name": "Calle 2",
        "system": "caracas-metrobus",
        "lines": [
          "P-771"
        ],
        "status": "operational",
        "altitude_m": null,
        "wikidata": null
      }
    },
    {
      "type": "Feature",
      "geometry": {
        "type": "Point",
        "coordinates": [
          -66.8078176,
          10.4857682
        ]
      },
      "properties": {
        "id": "caracas-metrobus:calle-4",
        "name": "Calle 4",
        "system": "caracas-metrobus",
        "lines": [
          "003"
        ],
        "status": "operational",
        "altitude_m": null,
        "wikidata": null
      }
    },
    {
      "type": "Feature",
      "geometry": {
        "type": "Point",
        "coordinates": [
          -66.8073338,
          10.4890251
        ]
      },
      "properties": {
        "id": "caracas-metrobus:calle-4-2",
        "name": "Calle 4",
        "system": "caracas-metrobus",
        "lines": [
          "003"
        ],
        "status": "operational",
        "altitude_m": null,
        "wikidata": null
      }
    },
    {
      "type": "Feature",
      "geometry": {
        "type": "Point",
        "coordinates": [
          -66.8055425,
          10.4925176
        ]
      },
      "properties": {
        "id": "caracas-metrobus:calle-7",
        "name": "Calle 7",
        "system": "caracas-metrobus",
        "lines": [
          "003"
        ],
        "status": "operational",
        "altitude_m": null,
        "wikidata": null
      }
    },
    {
      "type": "Feature",
      "geometry": {
        "type": "Point",
        "coordinates": [
          -66.9630429,
          10.4726786
        ]
      },
      "properties": {
        "id": "caracas-metrobus:calle-7-2",
        "name": "Calle 7",
        "system": "caracas-metrobus",
        "lines": [
          "601"
        ],
        "status": "operational",
        "altitude_m": null,
        "wikidata": null
      }
    },
    {
      "type": "Feature",
      "geometry": {
        "type": "Point",
        "coordinates": [
          -66.8750937,
          10.4999711
        ]
      },
      "properties": {
        "id": "caracas-metrobus:calle-garcia",
        "name": "Calle García",
        "system": "caracas-metrobus",
        "lines": [
          "302"
        ],
        "status": "operational",
        "altitude_m": null,
        "wikidata": null
      }
    },
    {
      "type": "Feature",
      "geometry": {
        "type": "Point",
        "coordinates": [
          -66.7953302,
          10.4813944
        ]
      },
      "properties": {
        "id": "caracas-metrobus:calle-norte",
        "name": "Calle Norte",
        "system": "caracas-metrobus",
        "lines": [
          "021"
        ],
        "status": "operational",
        "altitude_m": null,
        "wikidata": null
      }
    },
    {
      "type": "Feature",
      "geometry": {
        "type": "Point",
        "coordinates": [
          -66.8881317,
          10.50462
        ]
      },
      "properties": {
        "id": "caracas-metrobus:calle-norte-2",
        "name": "Calle Norte",
        "system": "caracas-metrobus",
        "lines": [
          "316"
        ],
        "status": "operational",
        "altitude_m": null,
        "wikidata": null
      }
    },
    {
      "type": "Feature",
      "geometry": {
        "type": "Point",
        "coordinates": [
          -66.9259683,
          10.5195637
        ]
      },
      "properties": {
        "id": "caracas-metrobus:calle-real",
        "name": "Calle Real",
        "system": "caracas-metrobus",
        "lines": [
          "542"
        ],
        "status": "operational",
        "altitude_m": null,
        "wikidata": null
      }
    },
    {
      "type": "Feature",
      "geometry": {
        "type": "Point",
        "coordinates": [
          -66.9765849,
          10.4327662
        ]
      },
      "properties": {
        "id": "caracas-metrobus:canagua",
        "name": "Canagua",
        "system": "caracas-metrobus",
        "lines": [
          "731"
        ],
        "status": "operational",
        "altitude_m": null,
        "wikidata": null
      }
    },
    {
      "type": "Feature",
      "geometry": {
        "type": "Point",
        "coordinates": [
          -66.9670452,
          10.4741913
        ]
      },
      "properties": {
        "id": "caracas-metrobus:cania",
        "name": "Cania",
        "system": "caracas-metrobus",
        "lines": [
          "P-771"
        ],
        "status": "operational",
        "altitude_m": null,
        "wikidata": null
      }
    },
    {
      "type": "Feature",
      "geometry": {
        "type": "Point",
        "coordinates": [
          -66.9712002,
          10.4679197
        ]
      },
      "properties": {
        "id": "caracas-metrobus:cardiologico",
        "name": "Cardiológico",
        "system": "caracas-metrobus",
        "lines": [
          "601"
        ],
        "status": "operational",
        "altitude_m": null,
        "wikidata": null
      }
    },
    {
      "type": "Feature",
      "geometry": {
        "type": "Point",
        "coordinates": [
          -66.8562314,
          10.4825178
        ]
      },
      "properties": {
        "id": "caracas-metrobus:caroni",
        "name": "Caroní",
        "system": "caracas-metrobus",
        "lines": [
          "221",
          "P-681"
        ],
        "status": "operational",
        "altitude_m": null,
        "wikidata": null
      }
    },
    {
      "type": "Feature",
      "geometry": {
        "type": "Point",
        "coordinates": [
          -66.959542,
          10.5047535
        ]
      },
      "properties": {
        "id": "caracas-metrobus:casa-del-obrero",
        "name": "Casa del Obrero",
        "system": "caracas-metrobus",
        "lines": [
          "501"
        ],
        "status": "operational",
        "altitude_m": null,
        "wikidata": null
      }
    },
    {
      "type": "Feature",
      "geometry": {
        "type": "Point",
        "coordinates": [
          -66.8769472,
          10.4842666
        ]
      },
      "properties": {
        "id": "caracas-metrobus:caura-i",
        "name": "Caura I",
        "system": "caracas-metrobus",
        "lines": [
          "315"
        ],
        "status": "operational",
        "altitude_m": null,
        "wikidata": null
      }
    },
    {
      "type": "Feature",
      "geometry": {
        "type": "Point",
        "coordinates": [
          -66.8767396,
          10.4834349
        ]
      },
      "properties": {
        "id": "caracas-metrobus:caura-ii",
        "name": "Caura II",
        "system": "caracas-metrobus",
        "lines": [
          "315"
        ],
        "status": "operational",
        "altitude_m": null,
        "wikidata": null
      }
    },
    {
      "type": "Feature",
      "geometry": {
        "type": "Point",
        "coordinates": [
          -66.8387306,
          10.4719463
        ]
      },
      "properties": {
        "id": "caracas-metrobus:caurimare",
        "name": "Caurimare",
        "system": "caracas-metrobus",
        "lines": [
          "201"
        ],
        "status": "operational",
        "altitude_m": null,
        "wikidata": null
      }
    },
    {
      "type": "Feature",
      "geometry": {
        "type": "Point",
        "coordinates": [
          -66.8388433,
          10.4730381
        ]
      },
      "properties": {
        "id": "caracas-metrobus:caurimare-2",
        "name": "Caurimare",
        "system": "caracas-metrobus",
        "lines": [
          "201"
        ],
        "status": "operational",
        "altitude_m": null,
        "wikidata": null
      }
    },
    {
      "type": "Feature",
      "geometry": {
        "type": "Point",
        "coordinates": [
          -66.8759112,
          10.4853618
        ]
      },
      "properties": {
        "id": "caracas-metrobus:caurimare-3",
        "name": "Caurimare",
        "system": "caracas-metrobus",
        "lines": [
          "315"
        ],
        "status": "operational",
        "altitude_m": null,
        "wikidata": null
      }
    },
    {
      "type": "Feature",
      "geometry": {
        "type": "Point",
        "coordinates": [
          -66.8362943,
          10.4767218
        ]
      },
      "properties": {
        "id": "caracas-metrobus:caurimare-i",
        "name": "Caurimare I",
        "system": "caracas-metrobus",
        "lines": [
          "121"
        ],
        "status": "operational",
        "altitude_m": null,
        "wikidata": null
      }
    },
    {
      "type": "Feature",
      "geometry": {
        "type": "Point",
        "coordinates": [
          -66.8360567,
          10.4765843
        ]
      },
      "properties": {
        "id": "caracas-metrobus:caurimare-i-2",
        "name": "Caurimare I",
        "system": "caracas-metrobus",
        "lines": [
          "121"
        ],
        "status": "operational",
        "altitude_m": null,
        "wikidata": null
      }
    },
    {
      "type": "Feature",
      "geometry": {
        "type": "Point",
        "coordinates": [
          -66.8375878,
          10.4757401
        ]
      },
      "properties": {
        "id": "caracas-metrobus:caurimare-ii",
        "name": "Caurimare II",
        "system": "caracas-metrobus",
        "lines": [
          "121"
        ],
        "status": "operational",
        "altitude_m": null,
        "wikidata": null
      }
    },
    {
      "type": "Feature",
      "geometry": {
        "type": "Point",
        "coordinates": [
          -66.8374468,
          10.475653
        ]
      },
      "properties": {
        "id": "caracas-metrobus:caurimare-ii-2",
        "name": "Caurimare II",
        "system": "caracas-metrobus",
        "lines": [
          "121"
        ],
        "status": "operational",
        "altitude_m": null,
        "wikidata": null
      }
    },
    {
      "type": "Feature",
      "geometry": {
        "type": "Point",
        "coordinates": [
          -66.8378256,
          10.4736176
        ]
      },
      "properties": {
        "id": "caracas-metrobus:caurimare-iii",
        "name": "Caurimare III",
        "system": "caracas-metrobus",
        "lines": [
          "121"
        ],
        "status": "operational",
        "altitude_m": null,
        "wikidata": null
      }
    },
    {
      "type": "Feature",
      "geometry": {
        "type": "Point",
        "coordinates": [
          -66.8376569,
          10.4738428
        ]
      },
      "properties": {
        "id": "caracas-metrobus:caurimare-iii-2",
        "name": "Caurimare III",
        "system": "caracas-metrobus",
        "lines": [
          "121"
        ],
        "status": "operational",
        "altitude_m": null,
        "wikidata": null
      }
    },
    {
      "type": "Feature",
      "geometry": {
        "type": "Point",
        "coordinates": [
          -66.8331452,
          10.4602027
        ]
      },
      "properties": {
        "id": "caracas-metrobus:centro-comercial",
        "name": "Centro Comercial",
        "system": "caracas-metrobus",
        "lines": [
          "121"
        ],
        "status": "operational",
        "altitude_m": null,
        "wikidata": null
      }
    },
    {
      "type": "Feature",
      "geometry": {
        "type": "Point",
        "coordinates": [
          -66.8336462,
          10.4601077
        ]
      },
      "properties": {
        "id": "caracas-metrobus:centro-comercial-2",
        "name": "Centro Comercial",
        "system": "caracas-metrobus",
        "lines": [
          "121"
        ],
        "status": "operational",
        "altitude_m": null,
        "wikidata": null
      }
    },
    {
      "type": "Feature",
      "geometry": {
        "type": "Point",
        "coordinates": [
          -66.9542488,
          10.5038866
        ]
      },
      "properties": {
        "id": "caracas-metrobus:centro-comercial-propatria",
        "name": "Centro Comercial Propatria",
        "system": "caracas-metrobus",
        "lines": [
          "501"
        ],
        "status": "operational",
        "altitude_m": null,
        "wikidata": null
      }
    },
    {
      "type": "Feature",
      "geometry": {
        "type": "Point",
        "coordinates": [
          -66.9544291,
          10.4793396
        ]
      },
      "properties": {
        "id": "caracas-metrobus:centro-de-formacion",
        "name": "Centro de Formación",
        "system": "caracas-metrobus",
        "lines": [
          "P-604"
        ],
        "status": "operational",
        "altitude_m": null,
        "wikidata": null
      }
    },
    {
      "type": "Feature",
      "geometry": {
        "type": "Point",
        "coordinates": [
          -66.9531621,
          10.4805431
        ]
      },
      "properties": {
        "id": "caracas-metrobus:centro-de-rehabilitacion",
        "name": "Centro de Rehabilitación",
        "system": "caracas-metrobus",
        "lines": [
          "P-604"
        ],
        "status": "operational",
        "altitude_m": null,
        "wikidata": null
      }
    },
    {
      "type": "Feature",
      "geometry": {
        "type": "Point",
        "coordinates": [
          -66.8564448,
          10.432938
        ]
      },
      "properties": {
        "id": "caracas-metrobus:centro-medico",
        "name": "Centro Médico",
        "system": "caracas-metrobus",
        "lines": [
          "202"
        ],
        "status": "operational",
        "altitude_m": null,
        "wikidata": null
      }
    },
    {
      "type": "Feature",
      "geometry": {
        "type": "Point",
        "coordinates": [
          -66.8558254,
          10.4327074
        ]
      },
      "properties": {
        "id": "caracas-metrobus:centro-medico-2",
        "name": "Centro Médico",
        "system": "caracas-metrobus",
        "lines": [
          "202"
        ],
        "status": "operational",
        "altitude_m": null,
        "wikidata": null
      }
    },
    {
      "type": "Feature",
      "geometry": {
        "type": "Point",
        "coordinates": [
          -66.8965157,
          10.5111708
        ]
      },
      "properties": {
        "id": "caracas-metrobus:centro-medico-3",
        "name": "Centro Médico",
        "system": "caracas-metrobus",
        "lines": [
          "421"
        ],
        "status": "operational",
        "altitude_m": null,
        "wikidata": null
      }
    },
    {
      "type": "Feature",
      "geometry": {
        "type": "Point",
        "coordinates": [
          -66.8407211,
          10.4638159
        ]
      },
      "properties": {
        "id": "caracas-metrobus:centro-profesional",
        "name": "Centro Profesional",
        "system": "caracas-metrobus",
        "lines": [
          "121"
        ],
        "status": "operational",
        "altitude_m": null,
        "wikidata": null
      }
    },
    {
      "type": "Feature",
      "geometry": {
        "type": "Point",
        "coordinates": [
          -66.8727618,
          10.4861376
        ]
      },
      "properties": {
        "id": "caracas-metrobus:cervantes",
        "name": "Cervantes",
        "system": "caracas-metrobus",
        "lines": [
          "315"
        ],
        "status": "operational",
        "altitude_m": null,
        "wikidata": null
      }
    },
    {
      "type": "Feature",
      "geometry": {
        "type": "Point",
        "coordinates": [
          -66.8681571,
          10.4918831
        ]
      },
      "properties": {
        "id": "caracas-metrobus:chacaito",
        "name": "Chacaíto",
        "system": "caracas-metrobus",
        "lines": [
          "221",
          "222"
        ],
        "status": "operational",
        "altitude_m": null,
        "wikidata": null
      }
    },
    {
      "type": "Feature",
      "geometry": {
        "type": "Point",
        "coordinates": [
          -66.8100086,
          10.4652234
        ]
      },
      "properties": {
        "id": "caracas-metrobus:chacao",
        "name": "Chacao",
        "system": "caracas-metrobus",
        "lines": [
          "001"
        ],
        "status": "operational",
        "altitude_m": null,
        "wikidata": null
      }
    },
    {
      "type": "Feature",
      "geometry": {
        "type": "Point",
        "coordinates": [
          -66.8733323,
          10.5057601
        ]
      },
      "properties": {
        "id": "caracas-metrobus:chaguaramos",
        "name": "Chaguaramos",
        "system": "caracas-metrobus",
        "lines": [
          "302"
        ],
        "status": "operational",
        "altitude_m": null,
        "wikidata": null
      }
    },
    {
      "type": "Feature",
      "geometry": {
        "type": "Point",
        "coordinates": [
          -66.87514,
          10.4849636
        ]
      },
      "properties": {
        "id": "caracas-metrobus:chama",
        "name": "Chama",
        "system": "caracas-metrobus",
        "lines": [
          "315"
        ],
        "status": "operational",
        "altitude_m": null,
        "wikidata": null
      }
    },
    {
      "type": "Feature",
      "geometry": {
        "type": "Point",
        "coordinates": [
          -66.8462488,
          10.4826503
        ]
      },
      "properties": {
        "id": "caracas-metrobus:chuao",
        "name": "Chuao",
        "system": "caracas-metrobus",
        "lines": [
          "201"
        ],
        "status": "operational",
        "altitude_m": null,
        "wikidata": null
      }
    },
    {
      "type": "Feature",
      "geometry": {
        "type": "Point",
        "coordinates": [
          -66.844717,
          10.4820706
        ]
      },
      "properties": {
        "id": "caracas-metrobus:chuao-2",
        "name": "Chuao",
        "system": "caracas-metrobus",
        "lines": [
          "201"
        ],
        "status": "operational",
        "altitude_m": null,
        "wikidata": null
      }
    },
    {
      "type": "Feature",
      "geometry": {
        "type": "Point",
        "coordinates": [
          -66.8412443,
          10.4304241
        ]
      },
      "properties": {
        "id": "caracas-metrobus:cigarral",
        "name": "Cigarral",
        "system": "caracas-metrobus",
        "lines": [
          "202"
        ],
        "status": "operational",
        "altitude_m": null,
        "wikidata": null
      }
    },
    {
      "type": "Feature",
      "geometry": {
        "type": "Point",
        "coordinates": [
          -66.8325964,
          10.4631812
        ]
      },
      "properties": {
        "id": "caracas-metrobus:circunvalacion-del-sol",
        "name": "Circunvalación del Sol",
        "system": "caracas-metrobus",
        "lines": [
          "121"
        ],
        "status": "operational",
        "altitude_m": null,
        "wikidata": null
      }
    },
    {
      "type": "Feature",
      "geometry": {
        "type": "Point",
        "coordinates": [
          -66.8322159,
          10.4629033
        ]
      },
      "properties": {
        "id": "caracas-metrobus:circunvalacion-del-sol-2",
        "name": "Circunvalación del Sol",
        "system": "caracas-metrobus",
        "lines": [
          "121"
        ],
        "status": "operational",
        "altitude_m": null,
        "wikidata": null
      }
    },
    {
      "type": "Feature",
      "geometry": {
        "type": "Point",
        "coordinates": [
          -66.8887803,
          10.4877013
        ]
      },
      "properties": {
        "id": "caracas-metrobus:ciudad-universitaria",
        "name": "Ciudad Universitaria",
        "system": "caracas-metrobus",
        "lines": [
          "921"
        ],
        "status": "operational",
        "altitude_m": null,
        "wikidata": null
      }
    },
    {
      "type": "Feature",
      "geometry": {
        "type": "Point",
        "coordinates": [
          -66.8714716,
          10.4472016
        ]
      },
      "properties": {
        "id": "caracas-metrobus:club-hipico",
        "name": "Club Hípico",
        "system": "caracas-metrobus",
        "lines": [
          "203"
        ],
        "status": "operational",
        "altitude_m": null,
        "wikidata": null
      }
    },
    {
      "type": "Feature",
      "geometry": {
        "type": "Point",
        "coordinates": [
          -66.8718581,
          10.4477761
        ]
      },
      "properties": {
        "id": "caracas-metrobus:club-hipico-2",
        "name": "Club Hípico",
        "system": "caracas-metrobus",
        "lines": [
          "203",
          "222"
        ],
        "status": "operational",
        "altitude_m": null,
        "wikidata": null
      }
    },
    {
      "type": "Feature",
      "geometry": {
        "type": "Point",
        "coordinates": [
          -66.8720097,
          10.4478969
        ]
      },
      "properties": {
        "id": "caracas-metrobus:club-hipico-3",
        "name": "Club Hípico",
        "system": "caracas-metrobus",
        "lines": [
          "222"
        ],
        "status": "operational",
        "altitude_m": null,
        "wikidata": null
      }
    },
    {
      "type": "Feature",
      "geometry": {
        "type": "Point",
        "coordinates": [
          -66.8883183,
          10.4836178
        ]
      },
      "properties": {
        "id": "caracas-metrobus:codazzi",
        "name": "Codazzi",
        "system": "caracas-metrobus",
        "lines": [
          "921"
        ],
        "status": "operational",
        "altitude_m": null,
        "wikidata": null
      }
    },
    {
      "type": "Feature",
      "geometry": {
        "type": "Point",
        "coordinates": [
          -66.9922335,
          10.4385045
        ]
      },
      "properties": {
        "id": "caracas-metrobus:colegio-tiuna-i",
        "name": "Colegio Tiuna I",
        "system": "caracas-metrobus",
        "lines": [
          "712"
        ],
        "status": "operational",
        "altitude_m": null,
        "wikidata": null
      }
    },
    {
      "type": "Feature",
      "geometry": {
        "type": "Point",
        "coordinates": [
          -66.9931401,
          10.4383227
        ]
      },
      "properties": {
        "id": "caracas-metrobus:colegio-tiuna-ii",
        "name": "Colegio Tiuna II",
        "system": "caracas-metrobus",
        "lines": [
          "712"
        ],
        "status": "operational",
        "altitude_m": null,
        "wikidata": null
      }
    },
    {
      "type": "Feature",
      "geometry": {
        "type": "Point",
        "coordinates": [
          -66.9263215,
          10.4335359
        ]
      },
      "properties": {
        "id": "caracas-metrobus:comando",
        "name": "Comando",
        "system": "caracas-metrobus",
        "lines": [
          "802"
        ],
        "status": "operational",
        "altitude_m": null,
        "wikidata": null
      }
    },
    {
      "type": "Feature",
      "geometry": {
        "type": "Point",
        "coordinates": [
          -66.8896392,
          10.513736
        ]
      },
      "properties": {
        "id": "caracas-metrobus:coromoto",
        "name": "Coromoto",
        "system": "caracas-metrobus",
        "lines": [
          "316"
        ],
        "status": "operational",
        "altitude_m": null,
        "wikidata": null
      }
    },
    {
      "type": "Feature",
      "geometry": {
        "type": "Point",
        "coordinates": [
          -66.9943061,
          10.4346767
        ]
      },
      "properties": {
        "id": "caracas-metrobus:cuatricentenario",
        "name": "Cuatricentenario",
        "system": "caracas-metrobus",
        "lines": [
          "712"
        ],
        "status": "operational",
        "altitude_m": null,
        "wikidata": null
      }
    },
    {
      "type": "Feature",
      "geometry": {
        "type": "Point",
        "coordinates": [
          -66.8821546,
          10.5078096
        ]
      },
      "properties": {
        "id": "caracas-metrobus:cumana",
        "name": "Cumaná",
        "system": "caracas-metrobus",
        "lines": [
          "314"
        ],
        "status": "operational",
        "altitude_m": null,
        "wikidata": null
      }
    },
    {
      "type": "Feature",
      "geometry": {
        "type": "Point",
        "coordinates": [
          -66.8151101,
          10.4665781
        ]
      },
      "properties": {
        "id": "caracas-metrobus:cumanagoto",
        "name": "Cumanagoto",
        "system": "caracas-metrobus",
        "lines": [
          "001"
        ],
        "status": "operational",
        "altitude_m": null,
        "wikidata": null
      }
    },
    {
      "type": "Feature",
      "geometry": {
        "type": "Point",
        "coordinates": [
          -66.8150153,
          10.4667215
        ]
      },
      "properties": {
        "id": "caracas-metrobus:cumanagoto-2",
        "name": "Cumanagoto",
        "system": "caracas-metrobus",
        "lines": [
          "001"
        ],
        "status": "operational",
        "altitude_m": null,
        "wikidata": null
      }
    },
    {
      "type": "Feature",
      "geometry": {
        "type": "Point",
        "coordinates": [
          -66.8817151,
          10.4890145
        ]
      },
      "properties": {
        "id": "caracas-metrobus:da-vinci",
        "name": "Da Vinci",
        "system": "caracas-metrobus",
        "lines": [
          "315"
        ],
        "status": "operational",
        "altitude_m": null,
        "wikidata": null
      }
    },
    {
      "type": "Feature",
      "geometry": {
        "type": "Point",
        "coordinates": [
          -66.903037,
          10.5136189
        ]
      },
      "properties": {
        "id": "caracas-metrobus:diagnostico",
        "name": "Diagnóstico",
        "system": "caracas-metrobus",
        "lines": [
          "421"
        ],
        "status": "operational",
        "altitude_m": null,
        "wikidata": null
      }
    },
    {
      "type": "Feature",
      "geometry": {
        "type": "Point",
        "coordinates": [
          -66.8089778,
          10.4731621
        ]
      },
      "properties": {
        "id": "caracas-metrobus:domingo-luciani-i",
        "name": "Domingo Luciani I",
        "system": "caracas-metrobus",
        "lines": [
          "002"
        ],
        "status": "operational",
        "altitude_m": null,
        "wikidata": null
      }
    },
    {
      "type": "Feature",
      "geometry": {
        "type": "Point",
        "coordinates": [
          -66.8096247,
          10.4732838
        ]
      },
      "properties": {
        "id": "caracas-metrobus:domingo-luciani-ii",
        "name": "Domingo Luciani II",
        "system": "caracas-metrobus",
        "lines": [
          "002"
        ],
        "status": "operational",
        "altitude_m": null,
        "wikidata": null
      }
    },
    {
      "type": "Feature",
      "geometry": {
        "type": "Point",
        "coordinates": [
          -66.8107972,
          10.4712324
        ]
      },
      "properties": {
        "id": "caracas-metrobus:domingo-luciani-iii",
        "name": "Domingo Luciani III",
        "system": "caracas-metrobus",
        "lines": [
          "002"
        ],
        "status": "operational",
        "altitude_m": null,
        "wikidata": null
      }
    },
    {
      "type": "Feature",
      "geometry": {
        "type": "Point",
        "coordinates": [
          -66.8735458,
          10.5034963
        ]
      },
      "properties": {
        "id": "caracas-metrobus:don-bosco",
        "name": "Don Bosco",
        "system": "caracas-metrobus",
        "lines": [
          "302"
        ],
        "status": "operational",
        "altitude_m": null,
        "wikidata": null
      }
    },
    {
      "type": "Feature",
      "geometry": {
        "type": "Point",
        "coordinates": [
          -66.8724761,
          10.5041278
        ]
      },
      "properties": {
        "id": "caracas-metrobus:el-bosque",
        "name": "El Bosque",
        "system": "caracas-metrobus",
        "lines": [
          "302"
        ],
        "status": "operational",
        "altitude_m": null,
        "wikidata": null
      }
    },
    {
      "type": "Feature",
      "geometry": {
        "type": "Point",
        "coordinates": [
          -66.8335841,
          10.46564
        ]
      },
      "properties": {
        "id": "caracas-metrobus:el-limon",
        "name": "El Limón",
        "system": "caracas-metrobus",
        "lines": [
          "121",
          "201"
        ],
        "status": "operational",
        "altitude_m": null,
        "wikidata": null
      }
    },
    {
      "type": "Feature",
      "geometry": {
        "type": "Point",
        "coordinates": [
          -66.8338394,
          10.4661641
        ]
      },
      "properties": {
        "id": "caracas-metrobus:el-limon-2",
        "name": "El Limón",
        "system": "caracas-metrobus",
        "lines": [
          "121",
          "201"
        ],
        "status": "operational",
        "altitude_m": null,
        "wikidata": null
      }
    },
    {
      "type": "Feature",
      "geometry": {
        "type": "Point",
        "coordinates": [
          -66.8111417,
          10.4952154
        ]
      },
      "properties": {
        "id": "caracas-metrobus:el-marques",
        "name": "El Marqués",
        "system": "caracas-metrobus",
        "lines": [
          "003"
        ],
        "status": "operational",
        "altitude_m": null,
        "wikidata": null
      }
    },
    {
      "type": "Feature",
      "geometry": {
        "type": "Point",
        "coordinates": [
          -66.8110245,
          10.4952865
        ]
      },
      "properties": {
        "id": "caracas-metrobus:el-marques-2",
        "name": "El Marqués",
        "system": "caracas-metrobus",
        "lines": [
          "003"
        ],
        "status": "operational",
        "altitude_m": null,
        "wikidata": null
      }
    },
    {
      "type": "Feature",
      "geometry": {
        "type": "Point",
        "coordinates": [
          -66.9270902,
          10.4860858
        ]
      },
      "properties": {
        "id": "caracas-metrobus:el-naranjal",
        "name": "El Naranjal",
        "system": "caracas-metrobus",
        "lines": [
          "606"
        ],
        "status": "operational",
        "altitude_m": null,
        "wikidata": null
      }
    },
    {
      "type": "Feature",
      "geometry": {
        "type": "Point",
        "coordinates": [
          -66.9338843,
          10.4832264
        ]
      },
      "properties": {
        "id": "caracas-metrobus:el-nuevo-pinar",
        "name": "El Nuevo Pinar",
        "system": "caracas-metrobus",
        "lines": [
          "606"
        ],
        "status": "operational",
        "altitude_m": null,
        "wikidata": null
      }
    },
    {
      "type": "Feature",
      "geometry": {
        "type": "Point",
        "coordinates": [
          -66.9275861,
          10.5180451
        ]
      },
      "properties": {
        "id": "caracas-metrobus:el-parque-i",
        "name": "El Parque I",
        "system": "caracas-metrobus",
        "lines": [
          "542"
        ],
        "status": "operational",
        "altitude_m": null,
        "wikidata": null
      }
    },
    {
      "type": "Feature",
      "geometry": {
        "type": "Point",
        "coordinates": [
          -66.9274374,
          10.5189971
        ]
      },
      "properties": {
        "id": "caracas-metrobus:el-parque-ii",
        "name": "El Parque II",
        "system": "caracas-metrobus",
        "lines": [
          "542"
        ],
        "status": "operational",
        "altitude_m": null,
        "wikidata": null
      }
    },
    {
      "type": "Feature",
      "geometry": {
        "type": "Point",
        "coordinates": [
          -66.8757462,
          10.4386455
        ]
      },
      "properties": {
        "id": "caracas-metrobus:el-penon",
        "name": "El Peñón",
        "system": "caracas-metrobus",
        "lines": [
          "222"
        ],
        "status": "operational",
        "altitude_m": null,
        "wikidata": null
      }
    },
    {
      "type": "Feature",
      "geometry": {
        "type": "Point",
        "coordinates": [
          -66.9372041,
          10.4809258
        ]
      },
      "properties": {
        "id": "caracas-metrobus:el-pinar",
        "name": "El Pinar",
        "system": "caracas-metrobus",
        "lines": [
          "606"
        ],
        "status": "operational",
        "altitude_m": null,
        "wikidata": null
      }
    },
    {
      "type": "Feature",
      "geometry": {
        "type": "Point",
        "coordinates": [
          -66.8765436,
          10.4373065
        ]
      },
      "properties": {
        "id": "caracas-metrobus:el-placer-de-maria",
        "name": "El Placer de María",
        "system": "caracas-metrobus",
        "lines": [
          "222"
        ],
        "status": "operational",
        "altitude_m": null,
        "wikidata": null
      }
    },
    {
      "type": "Feature",
      "geometry": {
        "type": "Point",
        "coordinates": [
          -66.9259334,
          10.5216077
        ]
      },
      "properties": {
        "id": "caracas-metrobus:el-rosario",
        "name": "El Rosario",
        "system": "caracas-metrobus",
        "lines": [
          "542"
        ],
        "status": "operational",
        "altitude_m": null,
        "wikidata": null
      }
    },
    {
      "type": "Feature",
      "geometry": {
        "type": "Point",
        "coordinates": [
          -66.8092197,
          10.4943073
        ]
      },
      "properties": {
        "id": "caracas-metrobus:el-saman",
        "name": "El Samán",
        "system": "caracas-metrobus",
        "lines": [
          "003"
        ],
        "status": "operational",
        "altitude_m": null,
        "wikidata": null
      }
    },
    {
      "type": "Feature",
      "geometry": {
        "type": "Point",
        "coordinates": [
          -66.8089852,
          10.4942666
        ]
      },
      "properties": {
        "id": "caracas-metrobus:el-saman-2",
        "name": "El Samán",
        "system": "caracas-metrobus",
        "lines": [
          "003"
        ],
        "status": "operational",
        "altitude_m": null,
        "wikidata": null
      }
    },
    {
      "type": "Feature",
      "geometry": {
        "type": "Point",
        "coordinates": [
          -66.958407,
          10.5012986
        ]
      },
      "properties": {
        "id": "caracas-metrobus:el-solitario",
        "name": "El Solitario",
        "system": "caracas-metrobus",
        "lines": [
          "501"
        ],
        "status": "operational",
        "altitude_m": null,
        "wikidata": null
      }
    },
    {
      "type": "Feature",
      "geometry": {
        "type": "Point",
        "coordinates": [
          -66.9560038,
          10.4988967
        ]
      },
      "properties": {
        "id": "caracas-metrobus:estadio",
        "name": "Estadio",
        "system": "caracas-metrobus",
        "lines": [
          "501"
        ],
        "status": "operational",
        "altitude_m": null,
        "wikidata": null
      }
    },
    {
      "type": "Feature",
      "geometry": {
        "type": "Point",
        "coordinates": [
          -66.9293827,
          10.4324182
        ]
      },
      "properties": {
        "id": "caracas-metrobus:fe-y-alegria",
        "name": "Fe y Alegría",
        "system": "caracas-metrobus",
        "lines": [
          "801",
          "802"
        ],
        "status": "operational",
        "altitude_m": null,
        "wikidata": null
      }
    },
    {
      "type": "Feature",
      "geometry": {
        "type": "Point",
        "coordinates": [
          -66.9292323,
          10.4326489
        ]
      },
      "properties": {
        "id": "caracas-metrobus:fe-y-alegria-2",
        "name": "Fe y Alegría",
        "system": "caracas-metrobus",
        "lines": [
          "802"
        ],
        "status": "operational",
        "altitude_m": null,
        "wikidata": null
      }
    },
    {
      "type": "Feature",
      "geometry": {
        "type": "Point",
        "coordinates": [
          -66.9111106,
          10.4925983
        ]
      },
      "properties": {
        "id": "caracas-metrobus:fuerzas-armadas",
        "name": "Fuerzas Armadas",
        "system": "caracas-metrobus",
        "lines": [
          "661"
        ],
        "status": "operational",
        "altitude_m": null,
        "wikidata": null
      }
    },
    {
      "type": "Feature",
      "geometry": {
        "type": "Point",
        "coordinates": [
          -66.9013111,
          10.512759
        ]
      },
      "properties": {
        "id": "caracas-metrobus:galipan",
        "name": "Galipán",
        "system": "caracas-metrobus",
        "lines": [
          "421"
        ],
        "status": "operational",
        "altitude_m": null,
        "wikidata": null
      }
    },
    {
      "type": "Feature",
      "geometry": {
        "type": "Point",
        "coordinates": [
          -66.9392473,
          10.5155446
        ]
      },
      "properties": {
        "id": "caracas-metrobus:gato-negro",
        "name": "Gato Negro",
        "system": "caracas-metrobus",
        "lines": [
          "533"
        ],
        "status": "operational",
        "altitude_m": null,
        "wikidata": null
      }
    },
    {
      "type": "Feature",
      "geometry": {
        "type": "Point",
        "coordinates": [
          -66.8306315,
          10.4607772
        ]
      },
      "properties": {
        "id": "caracas-metrobus:geminis",
        "name": "Géminis",
        "system": "caracas-metrobus",
        "lines": [
          "121"
        ],
        "status": "operational",
        "altitude_m": null,
        "wikidata": null
      }
    },
    {
      "type": "Feature",
      "geometry": {
        "type": "Point",
        "coordinates": [
          -66.8303584,
          10.4605295
        ]
      },
      "properties": {
        "id": "caracas-metrobus:geminis-2",
        "name": "Géminis",
        "system": "caracas-metrobus",
        "lines": [
          "121"
        ],
        "status": "operational",
        "altitude_m": null,
        "wikidata": null
      }
    },
    {
      "type": "Feature",
      "geometry": {
        "type": "Point",
        "coordinates": [
          -66.8627513,
          10.4345211
        ]
      },
      "properties": {
        "id": "caracas-metrobus:gonzalez-rincones",
        "name": "González Rincones",
        "system": "caracas-metrobus",
        "lines": [
          "203"
        ],
        "status": "operational",
        "altitude_m": null,
        "wikidata": null
      }
    },
    {
      "type": "Feature",
      "geometry": {
        "type": "Point",
        "coordinates": [
          -66.906231,
          10.4972829
        ]
      },
      "properties": {
        "id": "caracas-metrobus:granaderos",
        "name": "Granaderos",
        "system": "caracas-metrobus",
        "lines": [
          "661"
        ],
        "status": "operational",
        "altitude_m": null,
        "wikidata": null
      }
    },
    {
      "type": "Feature",
      "geometry": {
        "type": "Point",
        "coordinates": [
          -66.8078299,
          10.4691941
        ]
      },
      "properties": {
        "id": "caracas-metrobus:guaicaipuro",
        "name": "Guaicaipuro",
        "system": "caracas-metrobus",
        "lines": [
          "002"
        ],
        "status": "operational",
        "altitude_m": null,
        "wikidata": null
      }
    },
    {
      "type": "Feature",
      "geometry": {
        "type": "Point",
        "coordinates": [
          -66.8270447,
          10.4266982
        ]
      },
      "properties": {
        "id": "caracas-metrobus:hatillo-i",
        "name": "Hatillo I",
        "system": "caracas-metrobus",
        "lines": [
          "202"
        ],
        "status": "operational",
        "altitude_m": null,
        "wikidata": null
      }
    },
    {
      "type": "Feature",
      "geometry": {
        "type": "Point",
        "coordinates": [
          -66.8237707,
          10.4251691
        ]
      },
      "properties": {
        "id": "caracas-metrobus:hatillo-ii",
        "name": "Hatillo II",
        "system": "caracas-metrobus",
        "lines": [
          "202"
        ],
        "status": "operational",
        "altitude_m": null,
        "wikidata": null
      }
    },
    {
      "type": "Feature",
      "geometry": {
        "type": "Point",
        "coordinates": [
          -66.824103,
          10.4254172
        ]
      },
      "properties": {
        "id": "caracas-metrobus:hatillo-ii-2",
        "name": "Hatillo II",
        "system": "caracas-metrobus",
        "lines": [
          "202"
        ],
        "status": "operational",
        "altitude_m": null,
        "wikidata": null
      }
    },
    {
      "type": "Feature",
      "geometry": {
        "type": "Point",
        "coordinates": [
          -66.9707912,
          10.4839387
        ]
      },
      "properties": {
        "id": "caracas-metrobus:hospital",
        "name": "Hospital",
        "system": "caracas-metrobus",
        "lines": [
          "P-771"
        ],
        "status": "operational",
        "altitude_m": null,
        "wikidata": null
      }
    },
    {
      "type": "Feature",
      "geometry": {
        "type": "Point",
        "coordinates": [
          -66.9000394,
          10.5069551
        ]
      },
      "properties": {
        "id": "caracas-metrobus:hospital-de-ninos",
        "name": "Hospital de Niños",
        "system": "caracas-metrobus",
        "lines": [
          "421"
        ],
        "status": "operational",
        "altitude_m": null,
        "wikidata": null
      }
    },
    {
      "type": "Feature",
      "geometry": {
        "type": "Point",
        "coordinates": [
          -66.9001764,
          10.5069752
        ]
      },
      "properties": {
        "id": "caracas-metrobus:hospital-de-ninos-2",
        "name": "Hospital de Niños",
        "system": "caracas-metrobus",
        "lines": [
          "421"
        ],
        "status": "operational",
        "altitude_m": null,
        "wikidata": null
      }
    },
    {
      "type": "Feature",
      "geometry": {
        "type": "Point",
        "coordinates": [
          -66.87443,
          10.4873764
        ]
      },
      "properties": {
        "id": "caracas-metrobus:ibarra",
        "name": "Ibarra",
        "system": "caracas-metrobus",
        "lines": [
          "315"
        ],
        "status": "operational",
        "altitude_m": null,
        "wikidata": null
      }
    },
    {
      "type": "Feature",
      "geometry": {
        "type": "Point",
        "coordinates": [
          -66.8954804,
          10.5138913
        ]
      },
      "properties": {
        "id": "caracas-metrobus:iesa",
        "name": "IESA",
        "system": "caracas-metrobus",
        "lines": [
          "421"
        ],
        "status": "operational",
        "altitude_m": null,
        "wikidata": null
      }
    },
    {
      "type": "Feature",
      "geometry": {
        "type": "Point",
        "coordinates": [
          -66.8090181,
          10.4884675
        ]
      },
      "properties": {
        "id": "caracas-metrobus:ince",
        "name": "INCE",
        "system": "caracas-metrobus",
        "lines": [
          "003"
        ],
        "status": "operational",
        "altitude_m": null,
        "wikidata": null
      }
    },
    {
      "type": "Feature",
      "geometry": {
        "type": "Point",
        "coordinates": [
          -66.9448329,
          10.5077575
        ]
      },
      "properties": {
        "id": "caracas-metrobus:ince-2",
        "name": "INCE",
        "system": "caracas-metrobus",
        "lines": [
          "605"
        ],
        "status": "operational",
        "altitude_m": null,
        "wikidata": null
      }
    },
    {
      "type": "Feature",
      "geometry": {
        "type": "Point",
        "coordinates": [
          -66.8948614,
          10.5053028
        ]
      },
      "properties": {
        "id": "caracas-metrobus:ivss",
        "name": "IVSS",
        "system": "caracas-metrobus",
        "lines": [
          "316"
        ],
        "status": "operational",
        "altitude_m": null,
        "wikidata": null
      }
    },
    {
      "type": "Feature",
      "geometry": {
        "type": "Point",
        "coordinates": [
          -66.9623193,
          10.4336369
        ]
      },
      "properties": {
        "id": "caracas-metrobus:ivss-2",
        "name": "IVSS",
        "system": "caracas-metrobus",
        "lines": [
          "731"
        ],
        "status": "operational",
        "altitude_m": null,
        "wikidata": null
      }
    },
    {
      "type": "Feature",
      "geometry": {
        "type": "Point",
        "coordinates": [
          -66.9624407,
          10.4332534
        ]
      },
      "properties": {
        "id": "caracas-metrobus:ivss-3",
        "name": "IVSS",
        "system": "caracas-metrobus",
        "lines": [
          "731"
        ],
        "status": "operational",
        "altitude_m": null,
        "wikidata": null
      }
    },
    {
      "type": "Feature",
      "geometry": {
        "type": "Point",
        "coordinates": [
          -66.8342462,
          10.4974666
        ]
      },
      "properties": {
        "id": "caracas-metrobus:jose-maria-vargas",
        "name": "José María Vargas",
        "system": "caracas-metrobus",
        "lines": [
          "111"
        ],
        "status": "operational",
        "altitude_m": null,
        "wikidata": null
      }
    },
    {
      "type": "Feature",
      "geometry": {
        "type": "Point",
        "coordinates": [
          -66.9671942,
          10.6001892
        ]
      },
      "properties": {
        "id": "caracas-metrobus:jose-maria-vargas-2",
        "name": "José María Vargas",
        "system": "caracas-metrobus",
        "lines": [
          "603"
        ],
        "status": "operational",
        "altitude_m": null,
        "wikidata": null
      }
    },
    {
      "type": "Feature",
      "geometry": {
        "type": "Point",
        "coordinates": [
          -66.893006,
          10.5091245
        ]
      },
      "properties": {
        "id": "caracas-metrobus:jose-marti",
        "name": "José Martí",
        "system": "caracas-metrobus",
        "lines": [
          "316"
        ],
        "status": "operational",
        "altitude_m": null,
        "wikidata": null
      }
    },
    {
      "type": "Feature",
      "geometry": {
        "type": "Point",
        "coordinates": [
          -66.947872,
          10.4675056
        ]
      },
      "properties": {
        "id": "caracas-metrobus:juan-cuchara",
        "name": "Juan Cuchara",
        "system": "caracas-metrobus",
        "lines": [
          "607"
        ],
        "status": "operational",
        "altitude_m": null,
        "wikidata": null
      }
    },
    {
      "type": "Feature",
      "geometry": {
        "type": "Point",
        "coordinates": [
          -66.8396496,
          10.4275298
        ]
      },
      "properties": {
        "id": "caracas-metrobus:la-boyera",
        "name": "La Boyera",
        "system": "caracas-metrobus",
        "lines": [
          "202"
        ],
        "status": "operational",
        "altitude_m": null,
        "wikidata": null
      }
    },
    {
      "type": "Feature",
      "geometry": {
        "type": "Point",
        "coordinates": [
          -66.8395949,
          10.4276031
        ]
      },
      "properties": {
        "id": "caracas-metrobus:la-boyera-2",
        "name": "La Boyera",
        "system": "caracas-metrobus",
        "lines": [
          "202"
        ],
        "status": "operational",
        "altitude_m": null,
        "wikidata": null
      }
    },
    {
      "type": "Feature",
      "geometry": {
        "type": "Point",
        "coordinates": [
          -66.8356125,
          10.4262242
        ]
      },
      "properties": {
        "id": "caracas-metrobus:la-cabana",
        "name": "La Cabaña",
        "system": "caracas-metrobus",
        "lines": [
          "202"
        ],
        "status": "operational",
        "altitude_m": null,
        "wikidata": null
      }
    },
    {
      "type": "Feature",
      "geometry": {
        "type": "Point",
        "coordinates": [
          -66.8187742,
          10.4822688
        ]
      },
      "properties": {
        "id": "caracas-metrobus:la-california",
        "name": "La California",
        "system": "caracas-metrobus",
        "lines": [
          "001",
          "003"
        ],
        "status": "operational",
        "altitude_m": null,
        "wikidata": null
      }
    },
    {
      "type": "Feature",
      "geometry": {
        "type": "Point",
        "coordinates": [
          -66.818257,
          10.4815838
        ]
      },
      "properties": {
        "id": "caracas-metrobus:la-california-2",
        "name": "La California",
        "system": "caracas-metrobus",
        "lines": [
          "002"
        ],
        "status": "operational",
        "altitude_m": null,
        "wikidata": null
      }
    },
    {
      "type": "Feature",
      "geometry": {
        "type": "Point",
        "coordinates": [
          -66.9187394,
          10.4887672
        ]
      },
      "properties": {
        "id": "caracas-metrobus:la-chivera",
        "name": "La Chivera",
        "system": "caracas-metrobus",
        "lines": [
          "606"
        ],
        "status": "operational",
        "altitude_m": null,
        "wikidata": null
      }
    },
    {
      "type": "Feature",
      "geometry": {
        "type": "Point",
        "coordinates": [
          -66.8844903,
          10.5060931
        ]
      },
      "properties": {
        "id": "caracas-metrobus:la-colina",
        "name": "La Colina",
        "system": "caracas-metrobus",
        "lines": [
          "314"
        ],
        "status": "operational",
        "altitude_m": null,
        "wikidata": null
      }
    },
    {
      "type": "Feature",
      "geometry": {
        "type": "Point",
        "coordinates": [
          -66.8854389,
          10.4851244
        ]
      },
      "properties": {
        "id": "caracas-metrobus:la-colina-2",
        "name": "La Colina",
        "system": "caracas-metrobus",
        "lines": [
          "921"
        ],
        "status": "operational",
        "altitude_m": null,
        "wikidata": null
      }
    },
    {
      "type": "Feature",
      "geometry": {
        "type": "Point",
        "coordinates": [
          -66.8819391,
          10.4998195
        ]
      },
      "properties": {
        "id": "caracas-metrobus:la-consolacion-i",
        "name": "La Consolación I",
        "system": "caracas-metrobus",
        "lines": [
          "314"
        ],
        "status": "operational",
        "altitude_m": null,
        "wikidata": null
      }
    },
    {
      "type": "Feature",
      "geometry": {
        "type": "Point",
        "coordinates": [
          -66.8819902,
          10.4996727
        ]
      },
      "properties": {
        "id": "caracas-metrobus:la-consolacion-ii",
        "name": "La Consolación II",
        "system": "caracas-metrobus",
        "lines": [
          "314"
        ],
        "status": "operational",
        "altitude_m": null,
        "wikidata": null
      }
    },
    {
      "type": "Feature",
      "geometry": {
        "type": "Point",
        "coordinates": [
          -66.8512993,
          10.4837152
        ]
      },
      "properties": {
        "id": "caracas-metrobus:la-estancia",
        "name": "La Estancia",
        "system": "caracas-metrobus",
        "lines": [
          "201"
        ],
        "status": "operational",
        "altitude_m": null,
        "wikidata": null
      }
    },
    {
      "type": "Feature",
      "geometry": {
        "type": "Point",
        "coordinates": [
          -66.8536972,
          10.4852554
        ]
      },
      "properties": {
        "id": "caracas-metrobus:la-estancia-2",
        "name": "La Estancia",
        "system": "caracas-metrobus",
        "lines": [
          "201",
          "203"
        ],
        "status": "operational",
        "altitude_m": null,
        "wikidata": null
      }
    },
    {
      "type": "Feature",
      "geometry": {
        "type": "Point",
        "coordinates": [
          -66.913291,
          10.488711
        ]
      },
      "properties": {
        "id": "caracas-metrobus:la-farmacia",
        "name": "La Farmacia",
        "system": "caracas-metrobus",
        "lines": [
          "606"
        ],
        "status": "operational",
        "altitude_m": null,
        "wikidata": null
      }
    },
    {
      "type": "Feature",
      "geometry": {
        "type": "Point",
        "coordinates": [
          -66.8482615,
          10.4910069
        ]
      },
      "properties": {
        "id": "caracas-metrobus:la-floresta",
        "name": "La Floresta",
        "system": "caracas-metrobus",
        "lines": [
          "201",
          "202",
          "203"
        ],
        "status": "operational",
        "altitude_m": null,
        "wikidata": null
      }
    },
    {
      "type": "Feature",
      "geometry": {
        "type": "Point",
        "coordinates": [
          -66.8807054,
          10.5057683
        ]
      },
      "properties": {
        "id": "caracas-metrobus:la-guaira",
        "name": "La Guaira",
        "system": "caracas-metrobus",
        "lines": [
          "314"
        ],
        "status": "operational",
        "altitude_m": null,
        "wikidata": null
      }
    },
    {
      "type": "Feature",
      "geometry": {
        "type": "Point",
        "coordinates": [
          -66.8599057,
          10.4352029
        ]
      },
      "properties": {
        "id": "caracas-metrobus:la-guairita",
        "name": "La Guairita",
        "system": "caracas-metrobus",
        "lines": [
          "202"
        ],
        "status": "operational",
        "altitude_m": null,
        "wikidata": null
      }
    },
    {
      "type": "Feature",
      "geometry": {
        "type": "Point",
        "coordinates": [
          -66.8598456,
          10.4353012
        ]
      },
      "properties": {
        "id": "caracas-metrobus:la-guairita-2",
        "name": "La Guairita",
        "system": "caracas-metrobus",
        "lines": [
          "202"
        ],
        "status": "operational",
        "altitude_m": null,
        "wikidata": null
      }
    },
    {
      "type": "Feature",
      "geometry": {
        "type": "Point",
        "coordinates": [
          -66.8515116,
          10.4818495
        ]
      },
      "properties": {
        "id": "caracas-metrobus:la-guairita-3",
        "name": "La Guairita",
        "system": "caracas-metrobus",
        "lines": [
          "203",
          "221",
          "P-681"
        ],
        "status": "operational",
        "altitude_m": null,
        "wikidata": null
      }
    },
    {
      "type": "Feature",
      "geometry": {
        "type": "Point",
        "coordinates": [
          -66.9464087,
          10.4758532
        ]
      },
      "properties": {
        "id": "caracas-metrobus:la-india",
        "name": "La India",
        "system": "caracas-metrobus",
        "lines": [
          "606",
          "607"
        ],
        "status": "operational",
        "altitude_m": null,
        "wikidata": null
      }
    },
    {
      "type": "Feature",
      "geometry": {
        "type": "Point",
        "coordinates": [
          -66.946374,
          10.4760574
        ]
      },
      "properties": {
        "id": "caracas-metrobus:la-india-2",
        "name": "La India",
        "system": "caracas-metrobus",
        "lines": [
          "606",
          "607"
        ],
        "status": "operational",
        "altitude_m": null,
        "wikidata": null
      }
    },
    {
      "type": "Feature",
      "geometry": {
        "type": "Point",
        "coordinates": [
          -66.874356,
          10.4363939
        ]
      },
      "properties": {
        "id": "caracas-metrobus:la-industria",
        "name": "La Industria",
        "system": "caracas-metrobus",
        "lines": [
          "222"
        ],
        "status": "operational",
        "altitude_m": null,
        "wikidata": null
      }
    },
    {
      "type": "Feature",
      "geometry": {
        "type": "Point",
        "coordinates": [
          -66.8097665,
          10.4247278
        ]
      },
      "properties": {
        "id": "caracas-metrobus:la-lagunita",
        "name": "La Lagunita",
        "system": "caracas-metrobus",
        "lines": [
          "202"
        ],
        "status": "operational",
        "altitude_m": null,
        "wikidata": null
      }
    },
    {
      "type": "Feature",
      "geometry": {
        "type": "Point",
        "coordinates": [
          -66.8288021,
          10.4273794
        ]
      },
      "properties": {
        "id": "caracas-metrobus:la-muralla",
        "name": "La Muralla",
        "system": "caracas-metrobus",
        "lines": [
          "202"
        ],
        "status": "operational",
        "altitude_m": null,
        "wikidata": null
      }
    },
    {
      "type": "Feature",
      "geometry": {
        "type": "Point",
        "coordinates": [
          -66.9463491,
          10.4916545
        ]
      },
      "properties": {
        "id": "caracas-metrobus:la-quebradita-i",
        "name": "La Quebradita I",
        "system": "caracas-metrobus",
        "lines": [
          "605"
        ],
        "status": "operational",
        "altitude_m": null,
        "wikidata": null
      }
    },
    {
      "type": "Feature",
      "geometry": {
        "type": "Point",
        "coordinates": [
          -66.9452897,
          10.4951587
        ]
      },
      "properties": {
        "id": "caracas-metrobus:la-quebradita-ii",
        "name": "La Quebradita II",
        "system": "caracas-metrobus",
        "lines": [
          "605"
        ],
        "status": "operational",
        "altitude_m": null,
        "wikidata": null
      }
    },
    {
      "type": "Feature",
      "geometry": {
        "type": "Point",
        "coordinates": [
          -66.9362747,
          10.4333119
        ]
      },
      "properties": {
        "id": "caracas-metrobus:la-rinconada",
        "name": "La Rinconada",
        "system": "caracas-metrobus",
        "lines": [
          "801",
          "802"
        ],
        "status": "operational",
        "altitude_m": null,
        "wikidata": null
      }
    },
    {
      "type": "Feature",
      "geometry": {
        "type": "Point",
        "coordinates": [
          -66.8834996,
          10.5038917
        ]
      },
      "properties": {
        "id": "caracas-metrobus:la-salle",
        "name": "La Salle",
        "system": "caracas-metrobus",
        "lines": [
          "314",
          "316"
        ],
        "status": "operational",
        "altitude_m": null,
        "wikidata": null
      }
    },
    {
      "type": "Feature",
      "geometry": {
        "type": "Point",
        "coordinates": [
          -66.9483606,
          10.5028794
        ]
      },
      "properties": {
        "id": "caracas-metrobus:la-silsa",
        "name": "La Silsa",
        "system": "caracas-metrobus",
        "lines": [
          "605"
        ],
        "status": "operational",
        "altitude_m": null,
        "wikidata": null
      }
    },
    {
      "type": "Feature",
      "geometry": {
        "type": "Point",
        "coordinates": [
          -66.8685114,
          10.4338818
        ]
      },
      "properties": {
        "id": "caracas-metrobus:la-trinidad",
        "name": "La Trinidad",
        "system": "caracas-metrobus",
        "lines": [
          "203"
        ],
        "status": "operational",
        "altitude_m": null,
        "wikidata": null
      }
    },
    {
      "type": "Feature",
      "geometry": {
        "type": "Point",
        "coordinates": [
          -66.8692542,
          10.4342645
        ]
      },
      "properties": {
        "id": "caracas-metrobus:la-trinidad-2",
        "name": "La Trinidad",
        "system": "caracas-metrobus",
        "lines": [
          "222"
        ],
        "status": "operational",
        "altitude_m": null,
        "wikidata": null
      }
    },
    {
      "type": "Feature",
      "geometry": {
        "type": "Point",
        "coordinates": [
          -66.8836644,
          10.5071981
        ]
      },
      "properties": {
        "id": "caracas-metrobus:la-union",
        "name": "La Unión",
        "system": "caracas-metrobus",
        "lines": [
          "314"
        ],
        "status": "operational",
        "altitude_m": null,
        "wikidata": null
      }
    },
    {
      "type": "Feature",
      "geometry": {
        "type": "Point",
        "coordinates": [
          -66.8733922,
          10.4304477
        ]
      },
      "properties": {
        "id": "caracas-metrobus:la-variante",
        "name": "La Variante",
        "system": "caracas-metrobus",
        "lines": [
          "222"
        ],
        "status": "operational",
        "altitude_m": null,
        "wikidata": null
      }
    },
    {
      "type": "Feature",
      "geometry": {
        "type": "Point",
        "coordinates": [
          -66.9474399,
          10.4742422
        ]
      },
      "properties": {
        "id": "caracas-metrobus:la-vega",
        "name": "La Vega",
        "system": "caracas-metrobus",
        "lines": [
          "601"
        ],
        "status": "operational",
        "altitude_m": null,
        "wikidata": null
      }
    },
    {
      "type": "Feature",
      "geometry": {
        "type": "Point",
        "coordinates": [
          -66.944985,
          10.4744573
        ]
      },