[
  {
    "id": "altos-de-la-vanega",
    "name": "Altos de La Vanega",
    "lat": 10.6161,
    "lon": -71.6683,
    "lines": [
      "L1"
    ],
    "status": "operational",
    "wikidata": "Q15695363"
  },
  {
    "id": "el-varillal",
    "name": "El Varillal",
    "lat": 10.6237,
    "lon": -71.6591,
    "lines": [
      "L1"
    ],
    "status": "operational",
    "wikidata": "Q15695364"
  },
  {
    "id": "el-guayabal",
    "name": "El Guayabal",
    "lat": 10.6264,
    "lon": -71.6493,
    "lines": [
      "L1"
    ],
    "status": "operational",
    "wikidata": "Q15695366"
  },
  {
    "id": "sabaneta",
    "name": "Sabaneta",
    "lat": 10.63,
    "lon": -71.64,
    "lines": [
      "L1"
    ],
    "status": "operational"
  },
  {
    "id": "urdaneta",
    "name": "Urdaneta",
    "lat": 10.6356,
    "lon": -71.6303,
    "lines": [
      "L1"
    ],
    "status": "operational",
    "notes": "Elevated station"
  },
  {
    "id": "libertador",
    "name": "Libertador",
    "lat": 10.6391,
    "lon": -71.6214,
    "lines": [
      "L1"
    ],
    "status": "operational",
    "notes": "Elevated terminus station"
  }
]
